[{"lat": 52.229675, "lon": 21.01223, "city": "Warsaw"}, {"lat": 52.520008, "lon": 13.404954, "city": "Berlin"}, {"lat": 48.856613, "lon": 2.352222, "city": "Paris"}, {"lat": 51.507351, "lon": -0.127758, "city": "London"}, {"lat": 48.208176, "lon": 16.373819, "city": "Vienna"}, {"lat": 41.902782, "lon": 12.496365, "city": "Rome"}, {"lat": 50.850346, "lon": 4.351721, "city": "Brussels"}, {"lat": 49.610001, "lon": 6.12963, "city": "Luxembourg"}, {"lat": 46.947975, "lon": 7.447447, "city": "Bern"}, {"lat": 45.81501, "lon": 15.981919, "city": "Zagreb"}, {"lat": 38.907192, "lon": -77.036873, "city": "Washington"}, {"lat": -15.826691, "lon": -47.921822, "city": "Brasilia"}, {"lat": 28.613939, "lon": 77.209023, "city": "New Delhi"}, {"lat": 30.04442, "lon": 31.235712, "city": "Cairo"}]